City_ID,City,Country,Max Temp,Current Description,Lat,Lng,Hotel Name
0,Quijingue,BR,70.81,overcast clouds,-10.7525,-39.2092,Pousada Sabor Da Terra
2,Vaini,TO,84.36,broken clouds,-21.2,-175.2,Keleti Beach Resort
3,Atuona,PF,79.65,clear sky,-9.8,-139.0333,Villa Enata
4,Kosamba,IN,78.71,clear sky,21.4833,72.95,Ajay nanjibhai chavda
7,Busselton,AU,59.31,broken clouds,-33.65,115.3333,Observatory Guest House
8,Bredasdorp,ZA,60.22,broken clouds,-34.5322,20.0403,Bredasdorp Country Manor
9,Olinda,BR,83.93,few clouds,-8.0089,-34.8553,Flat Quatro Rodas Olinda
10,Saldanha,ZA,58.96,scattered clouds,-33.0117,17.9442,Blue Bay Lodge
12,Cabo San Lucas,MX,88.9,scattered clouds,22.8909,-109.9124,Hotel Tesoro Los Cabos
13,Lengshuijiang,CN,53.29,moderate rain,27.6881,111.4294,Sheraton
14,Havelock,US,60.78,overcast clouds,34.8791,-76.9013,Sherwood Motel
15,Pombal,BR,77.5,moderate rain,-6.7703,-37.8017,Pousada Shalom
16,Yulara,AU,71.44,broken clouds,-25.2406,130.9889,Desert Gardens Hotel - Ayers Rock Resort
18,Padang,ID,75.25,moderate rain,-0.9492,100.3543,Mercure Padang
20,Ambilobe,MG,71.35,scattered clouds,-13.2,49.05,Hôtel & Restaurant DIANA Ambilobe
21,Cape Town,ZA,63.01,clear sky,-33.9258,18.4232,"Radisson Blu Hotel Waterfront, Cape Town"
22,Isangel,VU,82.8,moderate rain,-19.55,169.2667,Tanna Lodge
23,Ancud,CL,55.22,overcast clouds,-41.8697,-73.8203,Hotel Arena Gruesa
25,Rikitea,PF,78.55,clear sky,-23.1203,-134.9692,People ThankYou
26,Comodoro Rivadavia,AR,62.46,clear sky,-45.8667,-67.5,Austral Hotel
27,Mataura,NZ,60.48,clear sky,-46.1927,168.8643,Ellie's Villa
30,Pisco,PE,65.01,clear sky,-13.7,-76.2167,Hotel San Isidro Oficial
32,Manoel Urbano,BR,72.54,scattered clouds,-8.8389,-69.2597,Baixada Beira Rio
34,Arraial Do Cabo,BR,73.47,clear sky,-22.9661,-42.0278,Pousada Porto Praia
36,Saint-Pierre,RE,73.29,overcast clouds,-21.3393,55.4781,Lindsey Hôtel
37,Dunedin,NZ,60.8,clear sky,-45.8742,170.5036,Scenic Hotel Southern Cross
38,Buala,SB,83.75,moderate rain,-8.145,159.5921,Maringe Lagoon Lodge
40,Atambua,ID,78.85,overcast clouds,-9.1061,124.8925,Kost Alfa Flat
41,Bluff,NZ,60.8,few clouds,-46.6,168.3333,Bluff Homestead - Guesthouse & Campervan Park
42,Curup,ID,70.09,overcast clouds,-3.4667,102.5333,Ayi The Costel
43,Sabang,ID,83.08,overcast clouds,5.8933,95.3214,Hotel Citra
45,Carnarvon,AU,66.27,overcast clouds,-24.8667,113.6333,Hospitality Carnarvon
46,Puerto Ayora,EC,75.16,light rain,-0.7393,-90.3518,Finch Bay Galapagos Hotel
47,Sapouy,BF,87.37,overcast clouds,11.5544,-1.7736,Auberge St Louis
50,Lorengau,PG,83.37,broken clouds,-2.0226,147.2712,Lorengau Harbourside Hotel
52,Osmanabad,IN,81.21,scattered clouds,18.1667,76.05,Hotel Megh Malhar
55,Tres Picos,MX,84.54,broken clouds,15.8667,-93.5333,Tres picos Chiapas
59,Chuy,UY,62.26,overcast clouds,-33.6971,-53.4616,Nuevo Hotel Plaza
61,Kapaa,US,80.58,broken clouds,22.0752,-159.319,Sheraton Kauai Coconut Beach Resort
62,Mae Hong Son,TH,75.34,mist,19.3003,97.9685,Baiyoke Chalet Hotel
64,Hilo,US,77.29,haze,19.7297,-155.09,Hilo Hawaiian Hotel
66,Port Elizabeth,ZA,64.31,heavy intensity rain,-33.918,25.5701,39 On Nile Guest House
69,San Patricio,US,84.92,scattered clouds,28.017,-97.5169,"Motel 6 Sinton, TX"
71,Grand Gaube,MU,79.2,few clouds,-20.0064,57.6608,Veranda Paul et Virginie Hotel & Spa
72,Saint George,US,85.62,clear sky,37.1041,-113.5841,Best Western Plus Abbey Inn
74,Nelson Bay,AU,74.08,few clouds,-32.7167,152.15,Mantra Nelson Bay
79,Georgetown,MY,82.33,few clouds,5.4112,100.3354,Cititel Penang
80,Maceio,BR,78.24,few clouds,-9.6658,-35.7353,Hotel Ponta Verde Maceió
81,Kununurra,AU,85.98,few clouds,-15.7667,128.7333,Hotel Kununurra
84,East London,ZA,64.62,broken clouds,-33.0153,27.9116,Tu Casa
85,Ginda,IN,57.36,broken clouds,30.6945,78.4932,Sunil Bisht
86,Port Blair,IN,80.8,overcast clouds,11.6667,92.75,"Welcomhotel By ITC Hotels, Bay Island, Port Blair"
87,Kovur,IN,79.68,scattered clouds,14.4833,79.9833,Hotel Yesh Park
88,Myitkyina,MM,67.14,broken clouds,25.3833,97.4,Shwe Phyu Hotel
91,Naliya,IN,77.68,scattered clouds,23.2667,68.8333,jadeja jayendrasinh
93,Plettenberg Bay,ZA,59.36,scattered clouds,-34.0527,23.3716,Thanda Vista B&B
94,Kikwit,CD,71.22,overcast clouds,-5.041,18.8162,HOTEL PLACE YALABA
95,Muros,ES,57.83,scattered clouds,42.7762,-9.0603,Apartment Av. Castelao
96,Faanui,PF,80.96,light rain,-16.4833,-151.75,Bora-Bora Pearl Beach Resort & Spa
97,New Norfolk,AU,55.92,overcast clouds,-42.7826,147.0587,The Shingles Riverside Cottages
98,Hobart,AU,60.03,broken clouds,-42.8794,147.3294,St Ives Hobart Accommodation Tasmania
99,Mayo,US,52.12,clear sky,38.8876,-76.5119,Resorts Resource Group International
104,Seoul,KR,56.77,overcast clouds,37.5683,126.9778,롯데호텔 서울
105,Sao Joao Da Barra,BR,69.94,clear sky,-21.6403,-41.0511,Pousada Porto De Canoas
108,Laguna,US,75.31,clear sky,38.421,-121.4238,"Holiday Inn Express & Suites Elk Grove Central - Hwy 99, an IHG Hotel"
113,Torbay,CA,54.37,overcast clouds,47.6666,-52.7314,Gallows Cove
115,Christchurch,NZ,62.42,scattered clouds,-43.5333,172.6333,The George
118,Mount Gambier,AU,58.96,overcast clouds,-37.8333,140.7667,The Commodore
119,Naze,JP,70.72,scattered clouds,28.3667,129.4833,Shishime Hotel
120,Qui Nhon,VN,75.56,broken clouds,13.7667,109.2333,Khách sạn Hải Âu Quy Nhơn - Seagull Hotel
121,Prince Rupert,CA,50.09,clear sky,54.3161,-130.3201,Crest Hotel
124,Rio Branco,BR,75.81,clear sky,-9.9747,-67.81,Hotel Guapindaia Bosque
125,Codrington,AU,60.06,light rain,-38.2667,141.9667,Codrington Gardens Bed And Breakfast
126,Hualmay,PE,66.67,few clouds,-11.0964,-77.6139,Hotel Villa Kitzia Huacho
127,Coquimbo,CL,59.23,clear sky,-29.9533,-71.3436,Hotel San Juan
128,Bengkulu,ID,76.6,overcast clouds,-3.8004,102.2655,Grage Hotel Bengkulu
130,Ushtobe,KZ,59.97,broken clouds,45.2514,77.9838,Filipin Squad
131,Nouadhibou,MR,66.18,scattered clouds,20.931,-17.0347,El Medina
132,Constitucion,CL,51.66,broken clouds,-35.3333,-72.4167,Hotel Boutique Las Azucenas
134,Mackay,AU,79.68,clear sky,-21.15,149.2,International Lodge Motel
135,Mar Del Plata,AR,64.09,clear sky,-38.0023,-57.5575,Gran Hotel Mar del Plata
136,Mangochi,MW,69.82,few clouds,-14.4782,35.2645,Fort Johnstone Hotel
137,Palm Coast,US,75.29,moderate rain,29.585,-81.2078,Hammock Beach Golf Resort & Spa
139,San Vicente,AR,55.67,clear sky,-26.6167,-54.1333,Complejo Turístico Farelluk
140,Mangrol,IN,78.57,clear sky,21.1167,70.1167,Hotel The Royal Honours
141,Ponta Delgada,PT,59.72,few clouds,37.7333,-25.6667,Vila Nova Hotel
142,Batemans Bay,AU,68.09,overcast clouds,-35.7167,150.1833,Batemans Bay Marina Resort
143,Praia,CV,70.16,clear sky,14.9215,-23.5087,LT Aparthotel
145,Saint-Philippe,RE,73.22,light rain,-21.3585,55.7679,"Chambres d'hôte ""La Trinité"""
147,Hermanus,ZA,61.81,broken clouds,-34.4187,19.2345,Misty Waves Boutique Hotel
148,Bubaque,GW,75.16,clear sky,11.2833,-15.8333,"Casa Dora, Bubaque"
149,Marawi,PH,73.99,overcast clouds,7.9986,124.2928,Derogongan Residence
150,Coihaique,CL,50.61,broken clouds,-45.5752,-72.0662,Diego De Almagro Coyhaique
151,Hithadhoo,MV,82.87,broken clouds,-0.6,73.0833,Scoop Guest House
152,Te Anau,NZ,60.53,scattered clouds,-45.4167,167.7167,Kingsgate Hotel Te Anau
153,Port Alfred,ZA,60.19,few clouds,-33.5906,26.891,The Halyards Hotel
155,Pangkalanbuun,ID,78.62,broken clouds,-2.6833,111.6167,Grand Kecubung Hotel
156,Bajos De Haina,DO,75.16,overcast clouds,18.4154,-70.0332,Familia García Santana
157,Betafo,MG,58.78,few clouds,-19.8333,46.85,CHEZ MALALA
160,Hami,CN,53.91,clear sky,42.8,93.45,Laoyutang Resort
161,Kaitangata,NZ,57.06,clear sky,-46.2817,169.8464,Kaitangata Motor Camp
162,Butaritari,KI,81.81,scattered clouds,3.0707,172.7902,Isles Sunset Lodge
163,Acarau,BR,78.28,overcast clouds,-2.8856,-40.12,castelo pizzaria
164,Korhogo,CI,78.75,overcast clouds,9.45,-5.6333,Hôtel Tchinbota
166,Camopi,GF,73.08,light rain,3.1655,-52.3158,La pousada
170,Lichinga,MZ,66.29,broken clouds,-13.3128,35.2406,Residencial Bendiak
172,Kavaratti,IN,82.96,broken clouds,10.5669,72.642,Hotels in Lakshadweep Islands
174,Tshikapa,CD,71.53,scattered clouds,-6.4167,20.8,Hôtel Tshia-Muntu de Tshikapa
175,Zambezi,ZM,63.86,overcast clouds,-13.5432,23.1047,Royal Kutachika Lodge
176,Namatanai,PG,85.37,overcast clouds,-3.6667,152.4333,Seagulls Inn Namatani
177,Mahebourg,MU,79.09,broken clouds,-20.4081,57.7,Shandrani Beachcomber Resort & Spa
178,Lebu,CL,53.33,overcast clouds,-37.6167,-73.65,Hostal Las Lilas
180,Bozhou,CN,58.26,overcast clouds,33.8772,115.7703,Haitian Hotel
182,Fortuna,US,58.93,clear sky,40.5982,-124.1573,Super 8 by Wyndham Fortuna
183,Inhambane,MZ,72.39,light rain,-23.865,35.3833,Oceano
184,Vao,NC,76.98,scattered clouds,-22.6667,167.4833,Hotel Kou-Bugny
190,Valparaiso,CL,56.48,scattered clouds,-33.0393,-71.6273,Hotel Ultramar
191,Vilhena,BR,68.54,broken clouds,-12.7406,-60.1458,Hotel Mirage
192,Port Macquarie,AU,74.89,few clouds,-31.4333,152.9167,Rydges Port Macquarie
193,Kavieng,PG,85.37,overcast clouds,-2.5744,150.7967,Nusa Island Retreat
194,Lagoa,PT,56.97,broken clouds,39.05,-27.9833,Casa Das Faias
195,Akyab,MM,80.91,broken clouds,20.15,92.9,Hotel Memory
198,Castro,BR,52.02,clear sky,-24.7911,-50.0119,CHACARA BAILLY
199,Santa Rosa,PH,86.09,broken clouds,14.3122,121.1114,Erlyn’s Sta Rosa City Home
200,Navalmoral De La Mata,ES,61.3,overcast clouds,39.8916,-5.5406,Hotel Moya S A
201,Avarua,CK,82.45,overcast clouds,-21.2078,-159.775,Paradise Inn
203,Awbari,LY,63.03,scattered clouds,26.5921,12.7805,فندق أوباري
204,Bambous Virieux,MU,79.05,light rain,-20.3428,57.7575,Casa Tia Villa
206,Shimoda,JP,59.36,overcast clouds,34.6667,138.95,Shimoda Tokyu Hotel
207,Nha Trang,VN,78.8,broken clouds,12.25,109.1833,Hanoi Golden Hotel
208,Ribeira Grande,PT,58.1,broken clouds,38.5167,-28.7,Quinta da Meia Eira
211,Liverpool,GB,53.29,broken clouds,53.4106,-2.9779,Premier Inn Liverpool City Centre (Moorfields) hotel
212,Puerto Ayacucho,VE,76.32,scattered clouds,5.6639,-67.6236,Posada Turistica Manapiare
214,Iracoubo,GF,77.25,scattered clouds,5.4802,-53.2011,Le Gîte d’Iracoubo
215,Mizan Teferi,ET,62.02,overcast clouds,6.9833,35.5833,Hotel Salayish - ሳላይሽ ሆቴል
217,Pitimbu,BR,79.39,broken clouds,-7.4706,-34.8086,Reserva do Abiaí
218,Kulhudhuffushi,MV,83.48,overcast clouds,6.6221,73.07,Haajy Guest House 1
223,Cayenne,GF,81.09,clear sky,4.9333,-52.3333,Hôtel Le Dronmi
224,Bang Saphan,TH,78.82,overcast clouds,11.2126,99.5117,Ladawan Boutique Hotel
228,Esperance,AU,58.84,broken clouds,-33.8667,121.9,Hospitality Esperance
229,Pithapuram,IN,77.99,broken clouds,17.1167,82.2667,Srinivasa Rice Industry
230,Tuatapere,NZ,59.49,clear sky,-46.1333,167.6833,Ron and Tony's Bed & Breakfast
231,Breyten,ZA,50.43,light rain,-26.3018,29.987,Breyten Hotel-Two Stars
232,Sinnamary,GF,77.34,scattered clouds,5.3833,-52.95,ALETHEIA Appartement Sinnamary
233,Hasaki,JP,64.8,broken clouds,35.7333,140.8333,Inubosaki Kanko Hotel
234,Pacific Grove,US,67.39,clear sky,36.6177,-121.9166,Lovers Point Inn
237,Beira,MZ,77.09,broken clouds,-19.8436,34.8389,Beira Terrace Hotel
240,Ahipara,NZ,69.58,light rain,-35.1667,173.1667,Ahipara Holiday Park
244,Alyangula,AU,85.87,overcast clouds,-13.8483,136.4192,Groote Eylandt Lodge
245,Pauini,BR,74.32,overcast clouds,-7.7136,-66.9764,Casa do Kiwliks
246,Manicore,BR,74.75,overcast clouds,-5.8092,-61.3003,Hotel Durval
247,Porto Novo,BJ,84.02,moderate rain,6.4965,2.6036,Tour Eiffel Hotel Benin
248,Itarema,BR,77.31,moderate rain,-2.9248,-39.9167,"Sea Lounge! Bar, Club & Restaurant"
249,Kang,BW,61.12,clear sky,-23.6752,22.7876,Kang Ultra Stop
250,Wanning,CN,77.45,broken clouds,18.8003,110.3967,Paradise Hotel
251,Lompoc,US,68.68,clear sky,34.6391,-120.4579,"Holiday Inn Express Lompoc, an IHG Hotel"
252,Passo De Camaragibe,BR,78.35,broken clouds,-9.2368,-35.4901,Chácara vovó candinha
254,Pemangkat,ID,79.66,broken clouds,1.1667,108.9667,Ramah Kost KITA
255,Cidreira,BR,67.35,overcast clouds,-30.1811,-50.2056,Hotel Castelo
256,Pochutla,MX,85.82,overcast clouds,15.7432,-96.4661,Hotel Posada San Jose
257,Maragogi,BR,78.78,broken clouds,-9.0122,-35.2225,Salinas do Maragogi All Inclusive Resort
258,Dingle,PH,80.85,broken clouds,10.9995,122.6711,SEGAYA PROPERTY
259,Pampa,US,75.56,clear sky,35.5362,-100.9599,"Holiday Inn Express & Suites Pampa, an IHG Hotel"
260,Jinxiang,CN,58.86,overcast clouds,27.4327,120.6062,Wolong Village
263,Kirakira,SB,84.97,broken clouds,-10.4544,161.9205,SanBiz Lodge
264,Marsh Harbour,BS,76.37,scattered clouds,26.5412,-77.0636,Abaco Beach Resort
265,Oussouye,SN,69.98,clear sky,12.485,-16.5469,Auberge du Routard
266,Carballo,ES,56.75,overcast clouds,43.213,-8.691,Pazo do Souto
269,Nara,JP,65.52,overcast clouds,34.6851,135.8049,Guesthouse Nara Komachi
270,Destin,US,73.98,overcast clouds,30.3935,-86.4958,The Inn on Destin Harbor
272,Banikoara,BJ,88.47,overcast clouds,11.2985,2.4386,Hôtel de l'UCom CVPC
273,Maldonado,UY,61.23,overcast clouds,-34.6667,-54.9167,La Cimarrona
274,Bandiagara,ML,80.15,broken clouds,14.3501,-3.6104,Hotel de la Falaise
276,Pemberton,CA,53.29,overcast clouds,50.3164,-122.8027,Pemberton Valley Lodge
278,Isla Vista,US,78.3,clear sky,34.4133,-119.861,Best Western Plus South Coast Inn
279,Morgan City,US,78.03,broken clouds,29.6994,-91.2068,Hampton Inn & Suites Morgan City
280,Winchester,GB,51.66,haze,51.0651,-1.3187,Lainston House
281,Catemaco,MX,84.76,few clouds,18.4167,-95.1167,Hotel Playa Cristal
285,Soe,ID,74.3,overcast clouds,-9.8607,124.284,Dena Hotel
286,Kahului,US,84.22,few clouds,20.8947,-156.47,Maui Seaside Hotel
287,Port Hedland,AU,86.05,few clouds,-20.3167,118.5667,The Esplanade Hotel
295,San Policarpo,PH,82.72,broken clouds,12.1791,125.5072,Agapita M. Nicart
297,Luena,AO,62.13,overcast clouds,-11.7833,19.9167,Hotel Kandamba
298,Beyneu,KZ,59.49,clear sky,45.3167,55.2,NUR
299,North Myrtle Beach,US,66.38,clear sky,33.816,-78.68,Avista Resort
301,Semnan,IR,50.02,few clouds,35.5729,53.3971,Semnan Tourist Hotel
302,Dahanu,IN,78.69,clear sky,19.9667,72.7333,Pearline Beach Villas
304,Moranbah,AU,76.53,clear sky,-22.0016,148.0466,Direct Hotels - Monterey Moranbah
305,Wamba,NG,76.19,light rain,8.9333,8.6,Roma Zee Guest House Annex
307,Coahuayana,MX,81.36,broken clouds,18.7333,-103.6833,El rranchito michuacan de ocampos
308,Labuan,MY,84.56,few clouds,5.2767,115.2417,Tiara Labuan Hotel
310,Kruisfontein,ZA,58.89,scattered clouds,-34.0033,24.7314,Oyster Bay House Rental
311,Bima,ID,80.98,moderate rain,-8.4667,118.7167,Lambitu Hotel
312,Souillac,MU,79.18,light rain,-20.5167,57.5167,Shanti Maurice Resort & Spa
313,Wanxian,CN,54.82,overcast clouds,30.8039,108.3897,7Days Inn Chongqing Shiqiaopu
315,Kamaishi,JP,54.48,scattered clouds,39.2667,141.8833,Hotel Route Inn Kamaishi
317,Sola,VU,88.47,broken clouds,-13.8833,167.55,Leumerus Bungalows
318,Sao Filipe,CV,71.51,clear sky,14.8961,-24.4956,Hotel Xaguate
323,Namibe,AO,72.82,few clouds,-15.1961,12.1522,Hotel Chik Chik Namibe
324,Port Hardy,CA,51.98,broken clouds,50.6996,-127.4199,Airport Inn-Port Hardy
325,Koutsouras,GR,63.1,broken clouds,35.0339,25.9469,The White Houses
326,Warrnambool,AU,57.81,light rain,-38.3833,142.4833,Lady Bay Resort
327,Alugan,PH,82.29,broken clouds,12.2188,125.4808,JM Lodge
330,Keta,GH,82.62,light rain,5.9179,0.9879,A&Y Wild Camp Ghana
334,Praia Da Vitoria,PT,59.25,scattered clouds,38.7333,-27.0667,Hotel Branco I
336,Victoria,HK,74.17,overcast clouds,22.2855,114.1577,Mini Hotel Central
338,Bharatpur,IN,83.73,clear sky,27.2167,77.4833,OYO 22446 Sonar Haveli
339,Sterling,US,51.22,clear sky,39.0062,-77.4286,Hampton Inn & Suites Washington-Dulles International Airport
340,Ketchikan,US,50.47,few clouds,55.3422,-131.6461,Snow's Cove Lodge
341,Jawad,IN,77.41,clear sky,24.6,74.85,हर मंदिर जावद
342,Moerai,PF,79.56,clear sky,-22.4333,-151.3333,Le Manotel
346,Gasa,PS,81.97,scattered clouds,31.5,34.4667,رابطة الفنانين الفلسطينيين
347,Jackson,US,62.74,clear sky,42.4165,-122.8345,Agate Village Apartments
348,Ponta Do Sol,PT,66.83,overcast clouds,32.6667,-17.1,Hotel do Campo
349,Diego De Almagro,CL,60.51,clear sky,-26.3667,-70.05,hotel luna del desierto
350,Waddan,LY,59.67,few clouds,29.1614,16.139,محل الشريف محمد العايب
351,Melo,UY,63.54,light rain,-32.3667,-54.1833,Hotel Juana
353,Russell,US,66.11,few clouds,32.3502,-85.1999,Macs
355,Cangucu,BR,56.25,overcast clouds,-31.395,-52.6756,Tchê Parque
356,Kathmandu,NP,59.22,mist,27.7167,85.3167,Hotel Shanker Kathmandu
357,Saint-Leu,RE,74.23,clear sky,-21.15,55.2833,La Caz Oceane
359,Carutapera,BR,76.37,overcast clouds,-1.195,-46.02,Lidera
360,Caravelas,BR,78.03,overcast clouds,-17.7125,-39.2481,Pousada dos Navegantes
362,Biloela,AU,76.41,clear sky,-24.4167,150.5,Biloela Silo Motor Inn
363,Nebaj,GT,79.38,broken clouds,15.4058,-91.1461,Hotel La Casa de David
364,Mandal,IN,81.91,clear sky,25.45,74.5667,Surpanch saab ki vatika
365,Tsiroanomandidy,MG,65.97,few clouds,-18.7667,46.0333,Hotel Ravinala
367,Cordeiro,BR,62.56,overcast clouds,-22.0286,-42.3608,Hotel Longra
368,Yining,CN,52.21,overcast clouds,29.0361,114.5636,Xiushui Hotel
369,Gualeguaychu,AR,63.9,overcast clouds,-33.0094,-58.5172,Hotel Los Angeles
370,Phenix City,US,66.67,light rain,32.471,-85.0008,Columbus Marriott
371,Richards Bay,ZA,63.48,light rain,-28.783,32.0377,BON Hotel Waterfront Richards Bay
373,Acajutla,SV,84.18,overcast clouds,13.5928,-89.8275,Laureles
374,Patos,BR,77.04,moderate rain,-7.0244,-37.28,Hotel JK
376,Los Llanos De Aridane,ES,69.55,overcast clouds,28.6585,-17.9182,Valle Aridane
380,Kudahuvadhoo,MV,83.86,broken clouds,2.6708,72.8944,Niyama Private Islands Maldives
381,Korla,CN,54.28,clear sky,41.7597,86.1469,Gulisitan Hotel
383,Anori,BR,74.46,heavy intensity rain,-3.7728,-61.6442,Novo Hotel 5 Irmãos
384,Mahanoro,MG,73.56,light rain,-19.9,48.8,BUNGALOW MAHAMANINA
385,Kitimat,CA,56.91,few clouds,54.0524,-128.6534,Kingfish Westcoast Adventures Ltd. Kitimat Estuary Lodge B&B
386,Ballina,AU,73.02,broken clouds,-28.8667,153.5667,Ramada Hotel & Suites by Wyndham Ballina Byron
387,Ahualulco,MX,89.42,scattered clouds,22.4,-101.1667,Hotel Aurelieus
388,Mahibadhoo,MV,83.8,overcast clouds,3.7833,72.9667,Omadhoo Inn
390,Luau,AO,63.59,overcast clouds,-10.7073,22.2247,Casa- Bernardo Cândido
391,Dera Bugti,PK,82.51,overcast clouds,29.0307,69.151,Nawab Bugti House
393,Komsomolskiy,UZ,63.32,broken clouds,40.4272,71.7189,Ikathouse
394,Odweyne,SO,72.88,broken clouds,9.4092,45.064,Eng Hiirey House
396,Gawler,AU,64.26,overcast clouds,-34.6,138.7333,Eagle Foundry Bed & Breakfast
398,Cabedelo,BR,79.47,broken clouds,-6.9811,-34.8339,Hotel Pigalle
399,Langsa,ID,74.75,overcast clouds,4.4683,97.9683,OYO 3328 Hotel Mori
401,Makakilo City,US,80.92,broken clouds,21.3469,-158.0858,Marriott's Ko Olina Beach Club
403,Ariquemes,BR,72.77,overcast clouds,-9.9133,-63.0408,Hotel Sol Nascente - Ariquemes - RO
405,Pyapon,MM,79.45,few clouds,16.2833,95.6833,Aung Naing Thu Motel
407,Hobyo,SO,82.67,broken clouds,5.3505,48.5268,Iftin hotel hobyo
408,Ihosy,MG,66.43,broken clouds,-22.4,46.1167,Hotely Sariaka
411,Chifeng,CN,50.61,clear sky,42.2683,118.9636,Junyu Tiancheng Hotel
412,Dapdap,PH,83.16,broken clouds,12.062,125.4881,Oasis Lodge
413,Mitsamiouli,KM,81.18,few clouds,-11.3847,43.2844,Foyer ADM
414,Nhulunbuy,AU,77.61,moderate rain,-12.2333,136.7667,East Arnhem Real Estate
415,Shache,CN,55.83,scattered clouds,38.4167,77.2406,Delong Hotel
416,Forio,IT,53.82,overcast clouds,40.7342,13.8646,Hotel Terme Providence
417,Faya,SA,62.71,scattered clouds,18.3851,42.4509,املاك خالد الشعشوع
418,Ixtapa,MX,78.22,broken clouds,20.7,-105.2,hotel la terminal
420,Aljezur,PT,56.95,overcast clouds,37.3191,-8.8033,Amazigh Hostel
422,Nishihara,JP,70.88,overcast clouds,26.1842,127.7558,Minshuku Agaihama
424,Olavarria,AR,60.03,broken clouds,-36.8927,-60.3225,Hotel Santa Rosa
425,Touros,BR,80.29,overcast clouds,-5.1989,-35.4608,INN NEW HORIZON
426,Correntina,BR,69.75,scattered clouds,-13.3433,-44.6367,Hotel Pousada dos Sonhos
429,Kutum,SD,79.57,scattered clouds,14.2,24.6667,Dibbo areaمنطقة دبو
430,Duldurga,RU,52.07,scattered clouds,50.6761,113.5931,Golden Dragon
432,Kitob,UZ,63.55,overcast clouds,39.0843,66.8332,KESH HOTEL
433,Sokoto,NG,84.56,overcast clouds,13.0609,5.239,Grand Ibro Hotel
434,Kieta,PG,82.85,light rain,-6.2167,155.6333,Uruna Bay Retreat
436,Klamath Falls,US,55.96,few clouds,42.2249,-121.7817,"Holiday Inn Express & Suites Klamath Falls Central, an IHG Hotel"
437,Benemerito De Las Americas,MX,82.38,few clouds,16.5167,-90.6439,Hotel Fontera Sur
439,Mumford,GH,80.49,moderate rain,5.2618,-0.759,Spanish Villa
440,Voh,NC,81.39,broken clouds,-20.9667,164.7,Le gîte du Koniambo
441,Katsuura,JP,62.87,overcast clouds,35.1333,140.3,Katsuura Hotel Mikazuki
442,Gornoye Loo,RU,62.38,broken clouds,43.7129,39.6049,«ВатерЛоо» гостиница
443,Francisco Beltrao,BR,57.58,clear sky,-26.0811,-53.055,Cristal Palace Hotel
446,Half Moon Bay,US,65.91,clear sky,37.4636,-122.4286,"The Ritz-Carlton, Half Moon Bay"
449,San Quintin,MX,64.76,clear sky,30.4833,-115.95,Don Eddie's Sport Fishing Center
450,Valdivia,CL,50.11,overcast clouds,-39.8142,-73.2459,Hostal Entre Rios
451,Cap Malheureux,MU,75.47,few clouds,-19.9842,57.6142,Pereybere Hotel & Spa
452,Chato,TZ,65.98,overcast clouds,-2.6378,31.7669,Kagudule Lodge
453,Bundaberg,AU,80.22,scattered clouds,-24.85,152.35,Takalvan Motel
456,Sibolga,ID,75.69,overcast clouds,1.7427,98.7792,Hotel Syariah CN Darussalam
457,Trincomalee,LK,79.52,scattered clouds,8.5711,81.2335,Welcombe Hotel
458,Ler,SS,82.26,clear sky,8.3018,30.1418,Leer Humanitarian Hub
459,Erzin,TR,65.25,overcast clouds,36.9559,36.2,Artemis Otel
462,Asyut,EG,83.34,broken clouds,27.181,31.1837,فندق ميس إيجيبت Miss Egypt Hotel
465,Ratnagiri,IN,78.46,clear sky,16.9833,73.3,Hotel Landmark
466,Vila Franca Do Campo,PT,59.41,broken clouds,37.7167,-25.4333,Pestana Bahia Praia
468,Pocone,BR,72.41,few clouds,-16.2567,-56.6228,Hotel e Churrascaria Pantaneira
469,Pontes E Lacerda,BR,71.82,few clouds,-15.2261,-59.3353,Hotel Bressan
473,Atherton,GB,52.9,overcast clouds,53.5237,-2.4935,The Mercury Motel
477,Belmonte,BR,77.05,overcast clouds,-15.8631,-38.8828,Pousada Monte Carmelo O Pão
480,Malanje,AO,64.72,overcast clouds,-9.5402,16.341,Hotel Ginga
481,Cacu,BR,62.02,clear sky,-18.5567,-51.1308,Império Hotel
482,Sainte-Marie,RE,75.33,broken clouds,-20.8968,55.5496,Les pailles en queue de Sainte Marie
483,Kloulklubed,PW,82.9,overcast clouds,7.0419,134.2556,Storyboard Beach Resort
485,Buchanan,LR,78.78,overcast clouds,5.8808,-10.0467,Kamaneahn Hotel Inc
486,Vila Velha,BR,75.15,broken clouds,-20.3297,-40.2925,Hotel Vitória Palace
487,Arenapolis,BR,72.79,few clouds,-14.4503,-56.8461,Mato Grosso Hotel
488,Zhuhai,CN,71.38,scattered clouds,22.2769,113.5678,珠海粤财假日酒店
490,Namwala,ZM,63.0,few clouds,-15.7504,26.4384,Corner Point Lodge
493,Ternate,ID,84.11,scattered clouds,0.8,127.4,Sahid Bela Ternate Hotel
494,Puerto Madryn,AR,60.51,clear sky,-42.7692,-65.0385,Hotel Tolosa
496,Talcahuano,CL,53.74,broken clouds,-36.7167,-73.1167,departamento comodo
497,Muriwai Beach,NZ,64.96,moderate rain,-36.8167,174.45,Coast Retreat Muriwai - Golf and Surf Holiday
498,Am Timan,TD,87.64,overcast clouds,11.0297,20.2827,Palais du chef Canton Salamt
499,Alagoinhas,BR,72.81,light rain,-12.1356,-38.4192,Alagoinhas Plaza Hotel
500,Moanda,GA,70.57,moderate rain,-1.5575,13.2178,Heliconia Stadium Moanda
504,Riyadh,SA,68.14,clear sky,24.6877,46.7219,"InterContinental Riyadh, an IHG Hotel"
508,Rio Grande,BR,63.95,overcast clouds,-32.035,-52.0986,Hotel Atlântico Rio Grande
509,Lata,PT,58.82,scattered clouds,40.1629,-8.3327,Casa Maquia
510,Shingu,JP,63.55,light rain,33.7333,135.9833,Shingu UI Hotel
512,Udaipura,IN,83.26,clear sky,23.0833,78.5,Hotel Kanha Palace
514,Pucallpa,PE,84.24,few clouds,-8.3791,-74.5539,Hotel Sol de Oriente - Pucallpa
519,Kroya,ID,82.42,broken clouds,-7.6331,109.2461,Devina kost & Homestay Kroya
520,Izumo,JP,55.35,clear sky,35.3667,132.7667,Toyoko-Inn Izumoshi ekimae
521,Margate,GB,52.7,broken clouds,51.3813,1.3862,Premier Inn Margate hotel
523,Shenjiamen,CN,56.71,overcast clouds,29.9576,122.298,Jinjiang Inn Zhoushan Putuo Shenjiamen
524,Hope,US,59.07,overcast clouds,33.6671,-93.5916,Best Western Hope
525,Tahta,EG,85.35,overcast clouds,26.7693,31.5021,فندق الزيات
527,North Bend,US,55.92,scattered clouds,43.4065,-124.2243,Red Lion Hotel Coos Bay
528,Ambon,ID,84.34,scattered clouds,-3.6954,128.1814,Swiss-Belhotel Ambon
529,Mmabatho,ZA,55.36,overcast clouds,-25.85,25.6333,Mahikeng Guest Apartments
530,Mayumba,GA,77.11,overcast clouds,-3.432,10.6554,LIKWALE LODGE
532,Orbetello,IT,51.82,broken clouds,42.4408,11.2196,Argentario Golf & Wellness Resort
533,Morales,CO,61.43,heavy intensity rain,2.757,-76.6172,Finca Santa Catalina
534,Tura,IN,71.83,clear sky,25.5198,90.2201,Hotel RIKMAN Continental
535,Strathpeffer,GB,55.11,moderate rain,57.588,-4.5382,Highland Hotel
536,Corinto,GR,56.41,overcast clouds,37.9407,22.9573,Ephira Hotel
537,Geraldton,AU,59.41,clear sky,-28.7667,114.6,Broadwater Mariner Resort
538,Lakatoro,VU,84.69,scattered clouds,-16.0999,167.4164,Lakatoro Palm Lodge
539,Sao Borja,BR,59.95,few clouds,-28.6606,-56.0044,Hotel Executivo
540,Lubango,AO,60.93,overcast clouds,-14.9172,13.4925,Hotel Serra da Chela
543,Altamira,BR,73.36,moderate rain,-3.2033,-52.2064,Requinte Hotel
544,Bilma,NE,78.75,clear sky,18.6853,12.9164,Expeditions Ténére voyages
545,Saint-Joseph,RE,72.21,clear sky,-21.3667,55.6167,"""Plantation Bed and Breakfast"
546,Abrau-Dyurso,RU,51.26,overcast clouds,44.69,37.59,Avgustin Inn
547,Djibo,BF,78.53,overcast clouds,14.1022,-1.6306,Centre Des Ressources DPENA
548,Sampit,ID,83.08,overcast clouds,-2.5333,112.95,Aquarius Boutique Hotel Sampit
549,Dunmore Town,BS,76.59,few clouds,25.5,-76.65,Coral Sands Hotel
550,San Juan,AR,67.53,few clouds,-31.5375,-68.5364,Hotel Provincial
551,Kaeo,NZ,68.32,light rain,-35.1,173.7833,Bushido Lodge
552,Iquitos,PE,75.24,overcast clouds,-3.7481,-73.2472,Cortez Malaga Techy Caroly
553,Villa Carlos Paz,AR,61.39,clear sky,-31.4241,-64.4978,Monte Carlo vcp
555,Kwinana,AU,62.15,clear sky,-32.25,115.7667,Rockingham Apartments
556,Meulaboh,ID,79.54,overcast clouds,4.1363,96.1285,Kost Pria
558,Kutahya,TR,50.86,overcast clouds,39.4242,29.9833,Grand Çınar Hotel
559,Huilong,CN,59.94,overcast clouds,31.8111,121.655,Hilton Garden Inn Qidong
561,Hambantota,LK,73.74,few clouds,6.1241,81.1185,Bungalow 63
562,Tabou,CI,76.93,overcast clouds,4.423,-7.3528,hotêl doufoulougou
564,Taganak,PH,82.54,few clouds,6.0833,118.3,Taganak
565,Oriximina,BR,75.87,overcast clouds,-1.7656,-55.8661,Pousada Tia Amélia
566,Sur,OM,85.1,clear sky,22.5667,59.5289,Sur Plaza Hotel
567,Palmerston North,NZ,68.5,overcast clouds,-40.35,175.6167,Distinction Coachman Hotel Palmerston North
569,Porto Santo,PT,61.18,few clouds,33.072,-16.3415,Hotel Porto Santo & Spa
571,Tautira,PF,81.36,light rain,-17.7333,-149.15,Pension Oaoa
572,Porto Seguro,BR,79.32,broken clouds,-16.4497,-39.0647,Porto Cálem Praia Hotel
574,Ngunguru,NZ,66.47,light rain,-35.6167,174.5,Pacific Rendezvous Motel Resort
575,Podor,MR,76.95,clear sky,16.6527,-14.9587,Auberge Du Tékrour
577,Mae Sai,TH,77.34,scattered clouds,20.4335,99.8762,Piyaporn Hill Paradise Hotel
578,Lamar,US,67.35,clear sky,33.6668,-95.5836,Kings Inn Paris TX
579,Santiago Del Estero,AR,65.35,clear sky,-27.7951,-64.2615,Apartamentos Castelli 90
582,Marolambo,MG,67.96,broken clouds,-20.05,48.1167,local guide suport centre
584,Dabat,ET,60.55,overcast clouds,12.9842,37.765,Haymanot hotel
585,Toul,FR,53.89,clear sky,48.6667,5.9167,Abc Hotel
586,Castro-Urdiales,ES,57.42,clear sky,43.3829,-3.2204,Hotel Las Rocas Playa
587,Smithers,CA,50.32,scattered clouds,54.7804,-127.1743,"Prestige Hudson Bay Lodge, Premier Collection"
588,Manjeshwar,IN,76.15,clear sky,12.7194,74.8861,Mangalore Beach House - EWA Ikigai
589,Chisec,GT,88.03,broken clouds,15.8167,-90.2833,Hotel Estancia De La Virgen
595,San Clemente,US,81.05,clear sky,33.427,-117.612,Casablanca Inn
597,Mattru,SL,77.36,overcast clouds,7.6244,-11.8332,"Mondkor Town, Bagbo Chiefdom, Bo District"
598,Macae,BR,65.95,clear sky,-22.3708,-41.7869,Golden Tulip Macaé
599,Jibuti,DJ,76.15,clear sky,11.5,42.5,Orchid Main Camp Goubet
600,Doka,SD,86.43,overcast clouds,13.5167,35.7667,Um Rakuba Refugee Camp
601,Norwalk,US,82.49,clear sky,33.9022,-118.0817,DoubleTree by Hilton Hotel Los Angeles - Norwalk
602,Keti Bandar,PK,79.32,clear sky,24.1447,67.4497,Haji laloo memon house
605,Aborlan,PH,86.07,overcast clouds,9.4352,118.5492,Kevina Transient House
606,Kokopo,PG,84.9,scattered clouds,-4.352,152.2633,Kokopo Beach Bungalow Resort
607,Arlit,NE,75.78,overcast clouds,18.7369,7.3853,Case de Passage De la Prefecture
608,Necochea,AR,58.93,overcast clouds,-38.5473,-58.7368,dyd -mar Hotel
609,Antofagasta,CL,60.3,broken clouds,-23.65,-70.4,"Holiday Inn Express Antofagasta, an IHG Hotel"
610,Dimona,IL,74.93,overcast clouds,31.0667,35.0333,Desert Sounds Hotel
611,Venice,US,79.14,mist,27.0998,-82.4543,A Beach Retreat On Casey Key
613,Presidencia Roque Saenz Pena,AR,59.45,clear sky,-26.7852,-60.4388,Hotel Gualok
614,Kosai,JP,61.93,light rain,34.7105,137.5316,Hotel Route Inn Hamanako
615,Samarai,PG,81.97,overcast clouds,-10.6167,150.6667,Nuli Sapi
616,Villa Guerrero,MX,89.22,overcast clouds,18.8667,-99.65,Ixtapan de la Sal Marriott Hotel & Spa
620,Belokurikha,RU,54.79,overcast clouds,51.9959,84.9896,Neo Hotel
621,Locri,IT,50.32,overcast clouds,38.2414,16.2623,Grand Hotel President
624,Marovoay,MG,74.39,few clouds,-16.1,46.6333,Hôtel les Oliviers Marovoay
625,Arrecife,ES,73.38,clear sky,28.963,-13.5477,Hotel Lancelot
627,Alice Springs,AU,78.35,clear sky,-23.7,133.8833,Desert Palms Alice Springs
628,Capiata,PY,68.25,clear sky,-25.35,-57.4167,hospedagem do mineiro
631,Ankazoabo,MG,72.73,overcast clouds,-22.2833,44.5167,ENCEIN BUREAU CISCO
632,The Valley,AI,79.11,broken clouds,18.217,-63.0578,CeBlue Villas & Beach Resort
634,Bowen,AU,80.55,clear sky,-20.0167,148.2333,Castle Motor Lodge Motel
636,Wajir,KE,80.49,light rain,1.7471,40.0573,Al-bustan Hotel And Restaurant.
637,Koungou,YT,78.51,clear sky,-12.7336,45.2042,Villa Netibor
639,Bandarbeyla,SO,80.37,few clouds,9.4942,50.8122,JABIR HOTEL
640,Camana,PE,66.92,broken clouds,-16.6228,-72.7111,Hostal Morales
643,Galesong,ID,78.82,broken clouds,-5.3166,119.3661,Sapriadi Appy
644,Pastos Bons,BR,74.44,overcast clouds,-6.6017,-44.0767,Área de lazer casa (Pucina)
645,Hirara,JP,75.47,scattered clouds,24.8,125.2833,Hotel Atoll Emerald Miyakojima
647,Jipijapa,EC,76.5,scattered clouds,-1.3333,-80.5833,Hotel Los Ceibos Jipijapa
648,Morant Bay,JM,80.22,clear sky,17.8815,-76.4093,Whispering Bamboo Cove Resort
649,Lipari,IT,54.32,overcast clouds,38.4674,14.954,Hotel Villa Diana Soc. Clelia Hunziker s.a.s.
650,Daloa,CI,73.42,light rain,6.8774,-6.4502,Imans Hotel Daloa
651,Yazoo City,US,64.71,few clouds,32.8551,-90.4056,Hampton Inn Yazoo City
652,Paita,PE,69.17,scattered clouds,-5.0892,-81.1144,Hotel Náutico de Paita
654,Ladario,BR,70.54,clear sky,-19.0047,-57.6017,Hotel Fazenda 4 cantos
655,Eyl,SO,81.03,scattered clouds,7.9803,49.8164,Amiin Hotel
656,Sao Felix Do Xingu,BR,72.82,overcast clouds,-6.6447,-51.995,Rio Xingu Camping
658,Srandakan,ID,82.51,overcast clouds,-7.9386,110.2506,Puri Brata
659,Mali,GN,74.61,overcast clouds,12.079,-12.2982,Hotel La Dame de Mali
661,Puerto Baquerizo Moreno,EC,74.01,light rain,-0.9,-89.6,Hotel los Algarrobos
662,Swellendam,ZA,56.5,overcast clouds,-34.0226,20.4417,De Kloof Heritage Estate boutique Hotel & SPA
664,Balkanabat,TM,52.38,scattered clouds,39.5108,54.3671,Nebitchi Hotel
667,Denpasar,ID,82.06,few clouds,-8.65,115.2167,OYO 3156 Hotel Warta 2
668,Guadalupe Y Calvo,MX,67.39,few clouds,26.1,-106.9667,Hotel Pizarro
669,Mandi Bahauddin,PK,77.67,clear sky,32.5834,73.4843,MBDIN SCHOOL & HOSTEL
670,Noumea,NC,84.18,scattered clouds,-22.2763,166.4572,Hôtel Le Lagon
671,Nouakchott,MR,64.33,few clouds,18.0858,-15.9785,HOTEL IMAN
673,Piacabucu,BR,79.61,broken clouds,-10.4056,-36.4344,Piaçabuçu News
675,Shunyi,CN,60.75,clear sky,40.125,116.6453,Beijing Mingchen Holiday Hotel
676,Portland,US,58.62,overcast clouds,45.5234,-122.6762,Embassy Suites by Hilton Portland Downtown
677,Bay Roberts,CA,55.15,light rain,47.5999,-53.2648,Stonewall Inn
678,Anjozorobe,MG,61.66,overcast clouds,-18.4,47.8667,Mandritsara
681,Boca Do Acre,BR,73.02,broken clouds,-8.7522,-67.3978,Hotel Sao Pedro
683,De Aar,ZA,57.47,clear sky,-30.6497,24.0123,Nyibiba Guesthouse
684,Baoying,CN,62.4,overcast clouds,33.2292,119.3092,GreenTree Alliance Yangzhou Baoying Town Huaijiang Street East Taishan Road Hotel
685,Ambagarh Chauki,IN,79.68,clear sky,20.7833,80.7167,गाँधी चौक शांति भवन सोनसाय टोला
686,Adeje,ES,76.3,haze,28.1227,-16.726,Gran Tacande Wellness & Relax
687,Mao,ES,50.56,clear sky,39.8885,4.2658,ARTIEM Capri
688,Lexington,US,50.34,clear sky,37.9887,-84.4777,DoubleTree Suites by Hilton Hotel Lexington
690,Gat,IL,84.88,scattered clouds,31.61,34.7642,OlusHome
